City_ID,City,Country,Lat,Lng,Max Temp,Humidity,Cloudiness,Wind Speed,Current Description
0,Avarua,CK,-21.2078,-159.775,71.65,78,100,11.5,overcast clouds
1,Jamestown,US,42.097,-79.2353,77.02,59,100,9.22,overcast clouds
2,Mar Del Plata,AR,-38.0023,-57.5575,55.09,98,100,3.0,overcast clouds
3,Boa Vista,BR,2.8197,-60.6733,80.26,79,99,2.1,overcast clouds
4,Albany,US,42.6001,-73.9662,80.37,51,99,0.65,overcast clouds
5,Kodiak,US,57.79,-152.4072,52.09,72,0,9.89,clear sky
6,Yellowknife,CA,62.456,-114.3525,62.01,59,98,3.98,overcast clouds
7,Rikitea,PF,-23.1203,-134.9692,74.1,73,98,12.73,overcast clouds
8,Geraldton,AU,-28.7667,114.6,57.61,62,100,10.36,overcast clouds
9,Abu Dhabi,AE,24.4667,54.3667,91.42,67,0,9.22,clear sky
10,Saskylakh,RU,71.9167,114.0833,63.55,96,68,12.35,broken clouds
11,San Patricio,US,28.017,-97.5169,95.72,44,100,15.5,overcast clouds
12,Eberbach,DE,49.4694,8.9928,75.54,45,85,1.01,overcast clouds
13,Linhares,BR,-19.3911,-40.0722,80.01,43,4,9.91,clear sky
14,Novyy Nekouz,RU,57.9029,38.07,67.48,88,38,5.59,scattered clouds
15,Vardo,NO,70.3705,31.1107,64.38,72,0,16.11,clear sky
16,Seoni Malwa,IN,22.45,77.4667,76.42,95,86,6.51,overcast clouds
17,Zaraza,VE,9.3503,-65.3245,93.54,42,16,2.37,few clouds
18,Devonport,AU,-41.1667,146.35,46.02,64,58,10.78,broken clouds
19,Cape Town,ZA,-33.9258,18.4232,60.91,72,0,8.01,clear sky
20,Ajdabiya,LY,30.7554,20.2263,81.28,67,1,16.28,clear sky
21,Atuona,PF,-9.8,-139.0333,77.29,67,33,20.83,scattered clouds
22,Mildura,AU,-34.2,142.15,43.36,86,26,7.54,scattered clouds
23,Aksay,RU,47.26,39.87,77.25,47,77,7.0,broken clouds
24,Nikolskoye,RU,59.7035,30.7861,67.89,86,100,4.92,overcast clouds
25,Mutoko,ZW,-17.397,32.2268,58.78,52,66,7.81,broken clouds
26,Kungurtug,RU,50.5994,97.5228,46.87,95,100,1.48,overcast clouds
27,Araouane,ML,18.9048,-3.5265,107.85,6,11,5.14,few clouds
28,Rawson,AR,-43.3002,-65.1023,46.04,77,100,10.29,overcast clouds
29,Marawi,PH,7.9986,124.2928,69.19,93,82,2.37,broken clouds
30,Pimentel,PE,-6.8367,-79.9342,66.9,79,95,13.13,overcast clouds
31,Hermanus,ZA,-34.4187,19.2345,54.81,77,0,11.77,clear sky
32,Taltal,CL,-25.4,-70.4833,64.96,69,78,4.36,broken clouds
33,Hilo,US,19.7297,-155.09,78.53,88,100,4.61,overcast clouds
34,General Cepeda,MX,25.3833,-101.45,84.07,42,50,8.75,scattered clouds
35,Tromso,NO,69.6496,18.957,50.02,87,75,6.91,light rain
36,Kahului,US,20.8947,-156.47,80.62,67,20,14.97,few clouds
37,Hay River,CA,60.8156,-115.7999,69.19,54,54,7.14,broken clouds
38,Port Blair,IN,11.6667,92.75,81.91,79,90,4.61,overcast clouds
39,Bethel,US,41.3712,-73.414,87.37,50,40,1.01,scattered clouds
40,Kangundo,KE,-1.2979,37.3471,68.34,67,98,9.78,overcast clouds
41,Clyde River,CA,70.4692,-68.5914,43.03,100,100,5.75,light rain
42,Havoysund,NO,70.9963,24.6622,50.23,96,100,13.0,light rain
43,Ushuaia,AR,-54.8,-68.3,38.14,83,100,9.04,overcast clouds
44,Chokurdakh,RU,70.6333,147.9167,45.75,60,86,8.1,overcast clouds
45,Castro,BR,-24.7911,-50.0119,71.8,47,42,5.97,scattered clouds
46,Victoria,HK,22.2855,114.1577,86.95,79,28,8.01,scattered clouds
47,Kapaa,US,22.0752,-159.319,80.58,77,20,10.36,few clouds
48,Saint George,US,37.1041,-113.5841,92.43,48,0,1.99,clear sky
49,Punta Arenas,CL,-53.15,-70.9167,41.11,65,75,29.93,broken clouds
50,Tandil,AR,-37.3217,-59.1332,55.69,95,100,4.99,overcast clouds
51,Okhotsk,RU,59.3833,143.3,57.45,88,94,4.74,overcast clouds
52,Port Lincoln,AU,-34.7333,135.8667,50.5,86,58,7.56,broken clouds
53,Malanje,AO,-9.5402,16.341,72.86,19,100,3.09,overcast clouds
54,Pevek,RU,69.7008,170.3133,33.93,90,100,3.02,overcast clouds
55,Monkey Bay,MW,-14.0728,34.9201,74.14,58,50,3.13,scattered clouds
56,Reyes,BO,-14.3167,-67.3833,94.19,37,44,2.59,scattered clouds
57,Paamiut,GL,61.994,-49.6678,42.04,95,59,14.92,broken clouds
58,Bandarbeyla,SO,9.4942,50.8122,76.96,83,69,30.96,broken clouds
59,Port Macquarie,AU,-31.4333,152.9167,43.9,71,32,7.87,scattered clouds
60,Ayorou,NE,14.7308,0.9174,97.45,32,4,15.88,clear sky
61,Touros,BR,-5.1989,-35.4608,81.32,66,39,16.96,scattered clouds
62,Westport,US,41.1415,-73.3579,88.16,50,94,1.99,overcast clouds
63,Cicevac,RS,43.7188,21.4408,71.2,68,63,6.53,light rain
64,Anchorage,US,61.2181,-149.9003,58.98,77,0,5.01,clear sky
65,Tiksi,RU,71.6872,128.8694,51.66,90,66,5.53,broken clouds
66,Kasangulu,CD,-4.5911,15.1708,79.9,39,75,6.35,broken clouds
67,Kieta,PG,-6.2167,155.6333,78.08,82,56,8.61,broken clouds
68,New Norfolk,AU,-42.7826,147.0587,45.9,78,91,1.01,overcast clouds
69,Ribeira Grande,PT,38.5167,-28.7,79.2,78,40,17.27,scattered clouds
70,Tuktoyaktuk,CA,69.4541,-133.0374,50.41,66,84,7.74,broken clouds
71,Puerto Ayora,EC,-0.7393,-90.3518,72.55,89,87,10.0,overcast clouds
72,Karratha,AU,-20.7377,116.8463,69.15,60,16,6.71,light rain
73,Petropavlovsk-Kamchatskiy,RU,53.0452,158.6483,53.71,87,72,8.39,broken clouds
74,Bodo,NO,67.28,14.405,52.65,83,75,16.11,broken clouds
75,Luchegorsk,RU,46.4764,134.2569,68.38,93,94,2.57,overcast clouds
76,Yei,SS,4.095,30.6779,67.5,95,96,2.71,light rain
77,Ranong,TH,9.9658,98.6348,78.94,88,83,2.57,broken clouds
78,Lagoa,PT,39.05,-27.9833,73.33,90,76,7.34,broken clouds
79,Port Elizabeth,ZA,-33.918,25.5701,59.31,86,82,5.01,broken clouds
80,Antsohihy,MG,-14.8796,47.9875,67.69,78,2,2.37,clear sky
81,Klaksvik,FO,62.2266,-6.589,52.72,85,100,12.17,overcast clouds
82,Vallenar,CL,-28.5708,-70.7581,70.99,33,38,4.27,scattered clouds
83,Tasiilaq,GL,65.6145,-37.6368,42.96,93,99,4.29,overcast clouds
84,Tonj,SS,7.2737,28.6822,71.33,91,97,5.26,light rain
85,Vostok,RU,46.4856,135.8833,62.02,95,84,2.95,broken clouds
86,Khislavichi,RU,54.1871,32.1582,61.9,95,99,5.5,overcast clouds
87,Cidreira,BR,-30.1811,-50.2056,66.43,75,87,6.29,overcast clouds
88,Katsuura,JP,35.1333,140.3,79.21,91,90,14.85,overcast clouds
89,Presidencia Roque Saenz Pena,AR,-26.7852,-60.4388,94.8,21,86,11.03,overcast clouds
90,Sorland,NO,67.667,12.6934,49.86,79,53,19.15,broken clouds
91,Khatanga,RU,71.9667,102.5,59.59,69,100,4.56,overcast clouds
92,Lebu,CL,-37.6167,-73.65,53.11,76,90,12.57,overcast clouds
93,Rock Sound,BS,24.9,-76.2,81.97,73,75,12.44,broken clouds
94,Norman Wells,CA,65.282,-126.8329,61.84,42,57,4.41,broken clouds
95,Sydney,AU,-33.8679,151.2073,53.71,75,0,9.22,clear sky
96,Ayan,RU,56.45,138.1667,58.06,86,68,6.13,broken clouds
97,Upernavik,GL,72.7868,-56.1549,39.96,83,100,2.39,overcast clouds
98,Mount Isa,AU,-20.7333,139.5,55.17,30,0,8.05,clear sky
99,Bluff,NZ,-46.6,168.3333,47.8,88,100,11.5,overcast clouds
100,Iqaluit,CA,63.7506,-68.5145,48.38,64,76,4.21,broken clouds
101,Cherskiy,RU,68.75,161.3,43.47,67,16,3.42,few clouds
102,Awjilah,LY,29.1081,21.2869,93.47,18,0,11.72,clear sky
103,Bredasdorp,ZA,-34.5322,20.0403,51.24,90,0,7.27,clear sky
104,Provideniya,RU,64.3833,-173.3,45.82,77,100,6.35,overcast clouds
105,Praia,CV,14.9215,-23.5087,81.64,77,25,9.35,scattered clouds
106,Merauke,ID,-8.4667,140.3333,76.1,85,96,15.43,overcast clouds
107,Mataura,NZ,-46.1927,168.8643,47.48,99,100,1.68,moderate rain
108,Georgetown,MY,5.4112,100.3354,80.53,85,20,5.75,few clouds
109,Jutai,BR,-5.1833,-68.9,95.27,34,63,4.5,broken clouds
110,Hobart,AU,-42.8794,147.3294,46.26,83,100,5.75,overcast clouds
111,Illela,NG,13.7292,5.2975,91.67,46,97,14.65,overcast clouds
112,Airai,TL,-8.9266,125.4092,51.51,81,33,4.12,scattered clouds
113,Asahikawa,JP,43.7678,142.3703,63.93,94,5,0.22,clear sky
114,Port-Gentil,GA,-0.7193,8.7815,76.96,83,40,11.5,scattered clouds
115,El Vigia,VE,8.6219,-71.6506,86.97,67,58,3.74,broken clouds
116,Guhagar,IN,17.4842,73.1929,79.02,89,100,5.59,overcast clouds
117,Pueblo,US,38.2545,-104.6091,89.44,43,0,9.22,clear sky
118,Illertissen,DE,48.2234,10.1035,73.63,40,40,6.91,scattered clouds
119,Nabire,ID,-3.3667,135.4833,75.85,92,99,3.65,overcast clouds
120,Tuatapere,NZ,-46.1333,167.6833,44.01,95,100,2.21,overcast clouds
121,Busselton,AU,-33.65,115.3333,53.13,75,79,8.63,broken clouds
122,Port Alfred,ZA,-33.5906,26.891,59.18,88,98,3.65,overcast clouds
123,Ubinskoye,RU,55.3068,79.6802,66.42,69,100,6.67,overcast clouds
124,Erenhot,CN,43.6475,111.9767,74.82,26,78,6.38,broken clouds
125,Bosconia,CO,9.9689,-73.8836,91.04,50,64,5.03,broken clouds
126,Esil,KZ,51.9556,66.4042,66.02,83,58,15.61,broken clouds
127,Sao Bras De Alportel,PT,37.1531,-7.8875,81.28,48,0,17.27,clear sky
128,Butaritari,KI,3.0707,172.7902,81.37,76,5,16.04,light rain
129,Alta Gracia,AR,-31.6529,-64.4283,61.88,78,100,6.64,overcast clouds
130,Kambove,CD,-10.8764,26.5969,62.06,44,96,3.91,overcast clouds
131,Kutum,SD,14.2,24.6667,68.77,87,95,15.59,heavy intensity rain
132,Abonnema,NG,4.7084,6.7931,75.51,90,100,8.59,moderate rain
133,Sur,OM,22.5667,59.5289,82.42,72,16,21.07,few clouds
134,Olkhovatka,RU,50.2831,39.2872,72.81,66,98,5.01,overcast clouds
135,Belyy Yar,RU,53.6039,91.3903,60.69,74,0,4.47,clear sky
136,Faanui,PF,-16.4833,-151.75,77.99,77,6,21.7,clear sky
137,Hearst,CA,49.6835,-83.6665,61.41,98,100,4.45,heavy intensity rain
138,Praia Da Vitoria,PT,38.7333,-27.0667,78.76,87,72,5.66,broken clouds
139,Sambava,MG,-14.2667,50.1667,69.33,85,3,10.58,clear sky
140,Bay Roberts,CA,47.5999,-53.2648,73.15,97,100,8.84,overcast clouds
141,Dondo,MZ,-19.6094,34.7431,65.71,75,0,5.91,clear sky
142,Kavieng,PG,-2.5744,150.7967,82.27,73,98,18.32,overcast clouds
143,Torbay,CA,47.6666,-52.7314,72.37,88,75,11.5,broken clouds
144,At-Bashi,KG,41.1702,75.8106,63.77,43,8,1.23,clear sky
145,Nanortalik,GL,60.1432,-45.2371,44.64,82,68,5.46,broken clouds
146,Okha,RU,53.5739,142.9478,52.3,93,33,7.74,scattered clouds
147,Kralendijk,BQ,12.15,-68.2667,85.98,70,75,14.97,broken clouds
148,Ugoofaaru,MV,5.6667,73.0,82.09,75,66,15.03,broken clouds
149,Mayo,US,38.8876,-76.5119,90.66,72,95,3.0,overcast clouds
150,Broome,US,42.2506,-75.833,85.01,51,0,11.5,clear sky
151,Saint-Augustin,CA,51.226,-58.6502,70.38,59,76,13.04,broken clouds
152,Hasaki,JP,35.7333,140.8333,77.4,90,100,17.4,overcast clouds
153,Narsaq,GL,60.9167,-46.05,57.42,75,23,7.78,few clouds
154,Corralillo,CU,22.9819,-80.5856,87.66,62,80,17.25,broken clouds
155,Ostrovnoy,RU,68.0531,39.5131,66.54,74,100,20.85,overcast clouds
156,Piranhas,BR,-16.4269,-51.8222,92.59,17,0,5.08,clear sky
157,Wattegama,LK,6.7989,81.4808,74.68,92,99,3.02,overcast clouds
158,Banda Aceh,ID,5.5577,95.3222,78.46,81,100,7.07,heavy intensity rain
159,Waipawa,NZ,-41.4122,175.5153,48.29,85,100,5.97,light rain
160,Rosarito,MX,32.3333,-117.0333,86.63,69,49,10.71,scattered clouds
161,Bougouni,ML,11.417,-7.479,83.48,69,86,4.5,overcast clouds
162,Dubbo,AU,-32.25,148.6167,35.73,85,100,0.0,overcast clouds
163,Ossora,RU,59.2353,163.0719,52.83,85,89,8.93,overcast clouds
164,Asau,RO,46.4333,26.4,74.32,83,45,3.0,scattered clouds
165,Utica,US,43.1009,-75.2327,81.91,59,100,4.88,overcast clouds
166,Berlevag,NO,70.8578,29.0864,62.4,94,75,11.5,thunderstorm
167,Verkhnevilyuysk,RU,63.4453,120.3167,67.37,78,6,4.7,clear sky
168,Thompson,CA,55.7435,-97.8558,53.98,90,100,9.4,overcast clouds
169,Dikson,RU,73.5069,80.5464,41.41,95,100,14.09,overcast clouds
170,Cayenne,GF,4.9333,-52.3333,84.09,1,75,5.75,broken clouds
171,Lorengau,PG,-2.0226,147.2712,82.08,77,86,10.47,overcast clouds
172,Yerbogachen,RU,61.2767,108.0108,61.36,84,100,4.83,light rain
173,Vera Cruz,BR,-12.6333,-41.0333,79.05,37,91,0.94,overcast clouds
174,Olafsvik,IS,64.8945,-23.7142,52.02,91,100,14.47,overcast clouds
175,Nishihara,JP,26.1842,127.7558,81.68,83,0,8.05,clear sky
176,Haines Junction,CA,60.7522,-137.5108,54.64,61,93,3.18,overcast clouds
177,Itarema,BR,-2.9248,-39.9167,84.02,63,29,18.14,scattered clouds
178,Maldonado,UY,-34.6667,-54.9167,63.23,70,73,10.71,broken clouds
179,Novi Pazar,RS,43.1367,20.5122,65.03,97,85,0.6,overcast clouds
180,Yulara,AU,-25.2406,130.9889,43.3,36,0,8.52,clear sky
181,Pangnirtung,CA,66.1451,-65.7125,57.09,60,77,4.05,broken clouds
182,Qaanaaq,GL,77.484,-69.3632,40.91,78,67,7.58,broken clouds
183,Manbij,SY,36.5281,37.9549,89.76,18,0,11.99,clear sky
184,Vaini,TO,-21.2,-175.2,69.96,100,20,3.44,few clouds
185,Kiunga,PG,-6.1219,141.2906,73.62,99,98,3.31,overcast clouds
186,Aksarka,RU,66.5606,67.7975,55.04,70,0,3.76,clear sky
187,Adrar,MR,20.5022,-10.0711,110.39,7,2,19.73,clear sky
188,Alofi,NU,-19.0595,-169.9187,75.83,76,12,19.08,few clouds
189,Iquique,CL,-20.2208,-70.1431,64.44,72,60,8.61,broken clouds
190,Truth Or Consequences,US,33.1284,-107.2528,86.92,40,0,10.36,clear sky
191,Fort Nelson,CA,58.8053,-122.7002,73.18,49,10,7.81,clear sky
192,Casay,PH,9.8204,123.5496,79.83,83,87,3.71,overcast clouds
193,Humaita,BR,-7.5061,-63.0208,100.51,19,24,2.95,few clouds
194,Umea,SE,63.8284,20.2597,62.53,51,100,13.8,overcast clouds
195,Seddon,AU,-37.8068,144.8916,52.3,90,75,8.05,broken clouds
196,Kruisfontein,ZA,-34.0033,24.7314,52.88,90,39,2.28,scattered clouds
197,Sitka,US,57.0531,-135.33,60.69,67,20,3.44,few clouds
198,Coahuayana,MX,18.7333,-103.6833,90.84,49,94,4.25,overcast clouds
199,Sinjar,IQ,36.3209,41.8754,93.22,10,0,10.51,clear sky
200,Severo-Yeniseyskiy,RU,60.3725,93.0408,56.37,90,99,2.91,overcast clouds
201,Goderich,CA,43.7501,-81.7165,72.28,73,85,7.67,overcast clouds
202,Latung,PH,5.5,120.8833,82.08,76,38,1.41,scattered clouds
203,Pen,IN,18.75,73.0833,82.44,88,100,0.87,overcast clouds
204,Enshi,CN,30.3,109.4833,71.91,96,94,1.14,overcast clouds
205,Skibbereen,IE,51.55,-9.2667,62.11,71,82,9.93,broken clouds
206,Arraial Do Cabo,BR,-22.9661,-42.0278,75.06,69,0,16.11,clear sky
207,Guerrero Negro,MX,27.9769,-114.0611,77.47,55,3,10.02,clear sky
208,Korla,CN,41.7597,86.1469,86.95,22,99,14.72,overcast clouds
209,Huntsville,US,34.7304,-86.5861,93.78,56,75,10.36,broken clouds
210,East London,ZA,-33.0153,27.9116,65.35,74,83,6.93,broken clouds
211,Fortuna,US,40.5982,-124.1573,66.92,79,16,3.0,few clouds
212,Puerto Rico,AR,-26.796,-55.024,85.78,37,66,4.27,broken clouds
213,Bage,BR,-31.3314,-54.1069,82.18,61,0,3.44,clear sky
214,Malinyi,TZ,-8.9333,36.1333,70.99,54,90,3.96,overcast clouds
215,Rudnya,RU,54.947,31.0934,60.73,95,100,6.58,overcast clouds
216,Mahebourg,MU,-20.4081,57.7,71.26,79,41,14.2,light rain
217,Brae,GB,60.3964,-1.353,55.83,72,61,6.96,broken clouds
218,Cabo San Lucas,MX,22.8909,-109.9124,94.6,76,20,11.5,few clouds
219,Bilma,NE,18.6853,12.9164,98.82,9,36,9.26,scattered clouds
220,Zhigansk,RU,66.7697,123.3711,63.41,73,5,1.99,clear sky
221,Guanica,PR,17.9716,-66.908,85.05,80,8,14.81,clear sky
222,Hithadhoo,MV,-0.6,73.0833,81.88,75,100,9.17,overcast clouds
223,Constitucion,CL,-35.3333,-72.4167,55.65,67,0,5.73,clear sky
224,Mogadishu,SO,2.0371,45.3438,76.23,77,81,19.39,broken clouds
225,Lima,PE,-12.0432,-77.0282,61.05,77,100,10.36,overcast clouds
226,Werda,BW,-25.2667,23.2833,67.24,30,45,10.8,scattered clouds
227,Kharan,PK,28.5833,65.4167,89.98,51,83,12.8,broken clouds
228,Nioki,CD,-2.7167,17.6833,81.01,46,86,1.14,overcast clouds
229,Mabaruma,GY,8.2,-59.7833,88.47,56,26,5.19,scattered clouds
230,Cookeville,US,36.1628,-85.5016,89.31,70,20,10.36,few clouds
231,Marrakesh,MA,31.6315,-8.0083,100.47,14,20,8.05,few clouds
232,Portland,US,45.5234,-122.6762,85.98,55,20,4.61,few clouds
233,Eureka,US,40.8021,-124.1637,68.2,81,33,3.0,scattered clouds
234,Bonavista,CA,48.6499,-53.1147,62.92,91,97,9.4,light rain
235,Salalah,OM,17.0151,54.0924,77.09,94,100,6.91,light intensity drizzle
236,Dongsheng,CN,39.8161,109.9776,63.7,67,6,9.75,clear sky
237,Teya,RU,60.3778,92.6267,60.12,80,94,2.77,overcast clouds
238,Areka,ET,7.0667,37.7,58.77,87,100,1.21,overcast clouds
239,Poyarkovo,RU,49.6,128.6833,67.55,79,97,3.31,overcast clouds
240,Piacabucu,BR,-10.4056,-36.4344,78.24,63,23,7.25,few clouds
241,Hofn,IS,64.2539,-15.2082,53.62,94,100,11.5,drizzle rain
242,Sao Filipe,CV,14.8961,-24.4956,80.53,81,71,4.34,broken clouds
243,Jacksonville Beach,US,30.2947,-81.3931,97.02,74,75,13.8,broken clouds
244,Chuy,UY,-33.6971,-53.4616,65.14,81,51,7.23,broken clouds
245,Flinders,AU,-34.5833,150.8552,54.18,69,27,10.0,scattered clouds
246,Coffs Harbour,AU,-30.3,153.1333,49.96,66,21,9.22,few clouds
247,Elko,US,41.0002,-115.5012,89.64,15,17,5.01,few clouds
248,Shahr-E Babak,IR,30.1165,55.1186,68.94,82,100,3.51,light rain
249,Vila Franca Do Campo,PT,37.7167,-25.4333,75.61,66,77,8.61,broken clouds
250,Dakar,SN,14.6937,-17.4441,81.9,78,100,13.73,overcast clouds
251,Tiarei,PF,-17.5333,-149.3333,77.02,73,47,25.59,scattered clouds
252,Lavrentiya,RU,65.5833,-171.0,41.7,81,90,7.58,overcast clouds
253,Balabac,PH,7.9868,117.0645,81.93,77,87,7.02,overcast clouds
254,Nouadhibou,MR,20.931,-17.0347,70.88,87,6,24.29,clear sky
255,Barrow,US,71.2906,-156.7887,33.53,97,100,13.49,overcast clouds
256,Wageningen,NL,51.9667,5.6667,69.12,58,100,6.91,overcast clouds
257,Esperance,AU,-33.8667,121.9,53.44,82,63,13.33,broken clouds
258,Ghorawal,IN,24.7667,82.7833,83.05,67,99,3.44,moderate rain
259,Taoudenni,ML,22.6783,-3.9836,112.3,5,0,17.09,clear sky
260,Ponta Delgada,PT,37.7333,-25.6667,75.92,83,20,19.57,few clouds
261,Souillac,MU,-20.5167,57.5167,69.94,83,21,11.52,light rain
262,Vilhena,BR,-12.7406,-60.1458,90.63,22,21,5.39,few clouds
263,Severo-Kurilsk,RU,50.6789,156.125,51.26,89,20,7.09,few clouds
264,Beloha,MG,-25.1667,45.05,61.95,75,2,5.91,clear sky
265,Anadyr,RU,64.75,177.4833,44.49,87,100,12.03,overcast clouds
266,Vysokogornyy,RU,50.1167,139.15,53.74,98,38,1.68,scattered clouds
267,Carnarvon,AU,-24.8667,113.6333,60.87,72,100,3.44,overcast clouds
268,Provins,FR,48.5833,3.1667,74.52,26,87,8.88,overcast clouds
269,Eyrarbakki,IS,63.863,-21.1481,54.21,96,100,16.55,overcast clouds
270,Katherine,AU,-14.4667,132.2667,57.52,54,40,3.44,scattered clouds
271,Lompoc,US,34.6391,-120.4579,71.74,82,100,6.91,mist
272,Inhambane,MZ,-23.865,35.3833,65.41,72,0,7.16,clear sky
273,Coihaique,CL,-45.5752,-72.0662,48.15,29,20,4.61,few clouds
274,Fairbanks,US,64.8378,-147.7164,52.14,86,100,3.44,light rain
275,Granadilla De Abona,ES,28.1188,-16.576,82.74,64,0,9.22,clear sky
276,Killybegs,IE,54.6333,-8.45,62.31,65,100,1.25,overcast clouds
277,Herat,AF,34.5,62.0,88.25,23,5,23.96,clear sky
278,Saint-Georges,GD,12.0564,-61.7485,81.41,76,15,11.41,few clouds
279,Tura,IN,25.5198,90.2201,74.32,90,87,3.38,overcast clouds
280,Constantine,DZ,36.365,6.6147,87.21,42,20,17.27,few clouds
281,Gilgit,PK,35.9221,74.3087,82.2,58,89,0.65,overcast clouds
282,Zima,RU,53.9202,102.0442,53.76,77,100,4.56,overcast clouds
283,Lugo,ES,43.0,-7.5,72.91,65,1,7.0,clear sky
284,Zlynka,RU,52.4267,31.7378,66.54,85,100,6.98,overcast clouds
285,Sistranda,NO,63.7256,8.834,51.76,73,96,14.88,overcast clouds
286,Ouesso,CG,1.6136,16.0517,78.12,69,87,2.21,overcast clouds
287,Asosa,ET,10.0667,34.5333,58.93,95,100,2.89,overcast clouds
288,Uzunovo,RU,54.5386,38.6173,70.99,74,82,4.07,broken clouds
289,Los Llanos De Aridane,ES,28.6585,-17.9182,71.35,78,0,17.27,clear sky
290,Bridlington,GB,54.0831,-0.1919,66.13,73,98,18.61,overcast clouds
291,Lata,PT,40.1629,-8.3327,72.81,46,0,9.89,clear sky
292,Ponta Do Sol,PT,32.6667,-17.1,76.71,74,1,5.64,clear sky
293,Viedma,AR,-40.8135,-62.9967,50.65,92,100,13.67,overcast clouds
294,Sri Aman,MY,1.2376,111.4621,74.28,98,100,0.83,overcast clouds
295,Lumeje,AO,-11.55,20.7833,66.25,22,42,5.84,scattered clouds
296,Vila,PT,42.0304,-8.1588,76.69,44,0,7.49,clear sky
297,Agirish,RU,61.9247,63.0231,62.91,53,84,1.79,broken clouds
298,Claresholm,CA,50.0333,-113.5852,71.2,40,10,4.72,clear sky
299,Arbuzynka,UA,47.9097,31.3196,78.3,30,75,7.96,broken clouds
300,Bengkulu,ID,-3.8004,102.2655,76.48,86,48,2.91,scattered clouds
301,Boyolangu,ID,-8.1181,111.8935,72.3,94,79,1.52,broken clouds
302,Moshupa,BW,-24.7782,25.4155,62.82,41,52,5.82,broken clouds
303,Nhulunbuy,AU,-12.2333,136.7667,72.21,88,7,8.05,clear sky
304,Sechura,PE,-5.5569,-80.8222,76.32,59,55,9.53,broken clouds
305,Mahibadhoo,MV,3.7833,72.9667,82.78,74,99,15.68,overcast clouds
306,Moree,AU,-29.4667,149.85,43.56,81,97,7.38,overcast clouds
307,Keetmanshoop,NA,-26.5833,18.1333,58.86,21,0,5.64,clear sky
308,Ixtapa,MX,20.7,-105.2,89.22,62,75,2.3,broken clouds
309,Dundee,GB,56.5,-2.9667,62.51,74,20,11.5,few clouds
310,Plouzane,FR,48.3833,-4.6167,68.05,52,0,8.05,clear sky
311,Mehamn,NO,71.0357,27.8492,53.51,100,100,6.91,mist
312,Bereda,ES,43.2686,-7.5406,73.58,70,1,6.22,clear sky
313,Jumla,NP,29.2747,82.1838,62.56,97,100,1.3,overcast clouds
314,Darhan,MN,49.4867,105.9228,55.94,68,96,3.4,overcast clouds
315,Matiguas,NI,12.8373,-85.4622,82.29,70,99,6.8,light rain
316,Lodeynoye Pole,RU,60.726,33.5531,64.18,82,100,1.83,overcast clouds
317,Abasolo,MX,20.45,-101.5167,73.67,61,95,2.84,overcast clouds
318,Kapchorwa,UG,1.3965,34.4509,60.57,80,91,3.94,overcast clouds
319,Mawlaik,MM,23.6333,94.4167,77.76,95,100,1.92,overcast clouds
320,Luderitz,NA,-26.6481,15.1594,58.14,72,0,8.25,clear sky
321,Alegrete,BR,-29.7831,-55.7919,78.78,63,100,9.04,overcast clouds
322,Najran,SA,17.4924,44.1277,86.07,32,98,7.14,overcast clouds
323,Maymyo,MM,22.0333,96.4667,69.06,85,97,2.17,overcast clouds
324,Kaitangata,NZ,-46.2817,169.8464,44.4,95,100,5.3,moderate rain
325,Srednekolymsk,RU,67.45,153.6833,38.64,79,9,6.4,clear sky
326,Baykit,RU,61.67,96.37,62.26,98,100,2.06,overcast clouds
327,Boden,SE,65.8252,21.6886,62.6,83,100,7.78,overcast clouds
328,Waingapu,ID,-9.6567,120.2641,73.18,88,14,11.3,few clouds
329,Inuvik,CA,68.3499,-133.7218,57.96,54,75,10.36,broken clouds
330,Shenjiamen,CN,29.9576,122.298,80.1,91,9,15.99,clear sky
331,Svetlogorsk,BY,52.6333,29.7333,62.58,94,97,8.12,overcast clouds
332,Grand Gaube,MU,-20.0064,57.6608,71.38,72,20,5.99,few clouds
333,Hami,CN,42.8,93.45,86.16,14,74,8.61,broken clouds
334,Grand-Santi,GF,4.25,-54.3833,85.42,61,91,2.35,overcast clouds
335,La Ronge,CA,55.1001,-105.2842,68.22,42,75,10.36,broken clouds
336,Mpika,ZM,-11.8343,31.4529,55.69,54,5,4.7,clear sky
337,Kismayo,SO,-0.3582,42.5454,75.7,77,31,15.75,scattered clouds
338,Cradock,ZA,-32.1642,25.6192,51.35,91,49,6.51,light rain
339,Rocha,UY,-34.4833,-54.3333,71.19,74,78,10.96,broken clouds
340,Razdolnoye,RU,43.55,131.9167,68.41,97,77,3.94,broken clouds
341,Arawa,PG,-6.2132,155.5367,75.22,89,51,5.32,broken clouds
342,High Rock,BS,26.6208,-78.2833,84.42,70,45,11.27,scattered clouds
343,Labuhan,ID,-6.8844,112.2051,76.66,84,62,7.14,broken clouds
344,Ola,RU,59.5833,151.2833,53.15,91,70,1.81,broken clouds
345,Wad Rawah,SD,15.1603,33.1397,85.17,47,91,14.63,overcast clouds
346,Saint-Joseph,RE,-21.3667,55.6167,65.21,81,29,5.66,scattered clouds
347,Puerto Escondido,MX,15.85,-97.0667,86.83,66,40,11.5,scattered clouds
348,Gamba,GA,-2.65,10.0,70.83,87,79,6.8,broken clouds
349,Camacha,PT,33.0833,-16.3333,71.02,68,75,14.97,broken clouds
350,Moerai,PF,-22.4333,-151.3333,71.74,67,61,26.24,broken clouds
351,Collierville,US,35.042,-89.6645,94.8,61,40,9.22,scattered clouds
352,Srivardhan,IN,18.0333,73.0167,79.63,88,100,4.76,moderate rain
353,Shimoda,JP,34.6667,138.95,77.11,92,68,6.76,broken clouds
354,Margate,GB,51.3813,1.3862,66.31,66,100,5.01,overcast clouds
355,Kabinda,CD,-6.1333,24.4833,76.48,31,99,3.91,overcast clouds
356,Vestmannaeyjar,IS,63.4427,-20.2734,52.79,100,100,17.27,fog
357,Namatanai,PG,-3.6667,152.4333,78.8,79,94,10.54,overcast clouds
358,Anuchino,RU,43.9622,133.0544,68.38,97,80,3.11,broken clouds
359,Irosin,PH,12.75,124.0333,74.16,93,100,5.79,light rain
360,Sisimiut,GL,66.9395,-53.6735,46.63,78,73,10.13,broken clouds
361,Saldanha,ZA,-33.0117,17.9442,53.65,79,0,7.54,clear sky
362,Ibra,OM,22.6906,58.5334,79.41,70,22,12.26,few clouds
363,Gwadar,PK,25.1216,62.3254,82.49,80,70,7.7,broken clouds
364,Kurumkan,RU,54.3,110.3,55.81,96,100,1.07,light rain
365,Saint-Philippe,RE,-21.3585,55.7679,66.22,80,20,6.49,few clouds
366,Alyangula,AU,-13.8483,136.4192,68.04,89,3,10.71,clear sky
367,Isoka,ZM,-10.1606,32.6335,64.62,47,84,5.35,broken clouds
368,Isangel,VU,-19.55,169.2667,75.13,88,58,8.03,broken clouds
369,Oistins,BB,13.0667,-59.5333,87.89,66,40,18.41,scattered clouds
370,Pundaguitan,PH,6.3711,126.1689,82.96,75,61,7.65,broken clouds
371,Gornopravdinsk,RU,60.05,69.9,54.84,79,100,5.66,overcast clouds
372,Mino,JP,34.8269,135.4706,80.42,72,33,2.21,scattered clouds
373,Tautira,PF,-17.7333,-149.15,76.69,75,85,23.29,overcast clouds
374,Leningradskiy,RU,69.3833,178.4167,36.41,89,100,1.88,overcast clouds
375,Hobyo,SO,5.3505,48.5268,76.5,77,95,27.02,overcast clouds
376,Sao Joao Da Barra,BR,-21.6403,-41.0511,78.89,65,4,12.21,clear sky
377,Yenagoa,NG,4.9247,6.2642,75.09,92,100,6.42,moderate rain
378,Paragominas,BR,-2.9667,-47.4833,93.24,32,16,4.56,few clouds
379,Bizhbulyak,RU,53.6967,54.2642,64.96,88,15,6.26,few clouds
380,Bireun,ID,5.203,96.7009,77.31,87,100,3.18,overcast clouds
381,Puerto Gaitan,CO,4.3133,-72.0816,77.59,85,97,8.63,light rain
382,Sumkino,RU,58.1108,68.3244,61.09,66,100,10.16,overcast clouds
383,Samarai,PG,-10.6167,150.6667,78.28,86,99,17.34,overcast clouds
384,Tomatlan,MX,19.9333,-105.25,91.78,49,85,5.37,overcast clouds
385,Chalchihuites,MX,23.4833,-103.8833,74.01,41,60,3.89,broken clouds
386,Valparaiso,CL,-33.0393,-71.6273,62.83,78,40,5.75,scattered clouds
387,Ayaviri,PE,-14.8864,-70.5889,60.62,16,4,7.31,clear sky
388,Santa Maria,BR,-29.6842,-53.8069,77.76,62,100,4.09,overcast clouds
389,Matay,EG,28.419,30.7792,92.44,18,0,6.26,clear sky
390,Bonthe,SL,7.5264,-12.505,76.26,86,100,7.25,light rain
391,Redlands,US,34.0556,-117.1825,98.31,42,75,3.44,haze
392,Eirunepe,BR,-6.6603,-69.8736,96.01,32,37,2.93,scattered clouds
393,Thinadhoo,MV,0.5333,72.9333,82.98,73,100,11.54,overcast clouds
394,Ancud,CL,-41.8697,-73.8203,57.22,76,19,1.54,few clouds
395,Empalme,MX,27.9667,-110.8167,93.92,59,40,9.22,scattered clouds
396,Atasu,KZ,48.6814,71.6433,76.55,34,34,7.87,scattered clouds
397,Charagua,BO,-19.8,-63.2167,89.69,28,23,14.61,few clouds
398,Lerum,SE,57.7745,12.2697,65.08,59,0,10.36,clear sky
399,Xining,CN,36.6167,101.7667,55.04,48,17,2.53,few clouds
400,Bereznik,RU,62.8551,42.7072,66.51,86,41,5.86,scattered clouds
401,Cubuk,TR,40.2386,33.0322,82.15,24,0,10.36,clear sky
402,Longyearbyen,SJ,78.2186,15.6401,51.64,66,40,21.85,scattered clouds
403,Amga,RU,60.8953,131.9608,62.29,79,46,0.76,scattered clouds
404,Eskil,TR,38.4017,33.4131,78.66,28,0,7.47,clear sky
405,Aklavik,CA,68.2191,-135.0107,58.08,45,56,20.36,broken clouds
406,Rio Gallegos,AR,-51.6226,-69.2181,33.85,51,75,6.91,broken clouds
407,Winslow,US,35.0242,-110.6974,78.98,57,75,9.22,broken clouds
408,Kushiro,JP,42.975,144.3747,65.91,98,57,6.22,broken clouds
409,Mufulira,ZM,-12.5498,28.2407,62.13,37,38,2.13,scattered clouds
410,Pachino,IT,36.7186,15.0907,81.95,71,0,8.75,clear sky
411,Villa Bruzual,VE,9.3328,-69.1208,85.64,68,23,3.96,few clouds
412,Strezhevoy,RU,60.7333,77.5889,57.74,74,98,8.19,overcast clouds
413,Avera,US,33.194,-82.5271,93.54,35,95,7.83,overcast clouds
414,Turukhansk,RU,65.8167,87.9833,60.93,62,31,6.02,scattered clouds
415,Misratah,LY,32.3754,15.0925,84.96,55,0,5.44,clear sky
416,Sadasivpet,IN,17.6212,77.9503,77.54,83,100,2.98,overcast clouds
417,Half Moon Bay,US,37.4636,-122.4286,78.89,74,75,14.97,broken clouds
418,Guane,CU,22.2025,-84.0875,91.2,53,7,11.3,clear sky
419,Svobodnyy,RU,51.4,128.1333,65.61,97,100,6.46,overcast clouds
420,Matara,LK,5.9485,80.5353,76.39,91,99,6.04,overcast clouds
421,Tommot,RU,58.9564,126.2925,60.37,77,5,3.53,clear sky
422,Massaguet,TD,12.4755,15.4365,74.35,80,100,7.45,overcast clouds
423,Borogontsy,RU,62.6683,131.1683,65.48,71,32,1.92,scattered clouds
424,San Javier,ES,37.8063,-0.8374,89.58,66,20,5.75,few clouds
425,Saint Simons,US,31.1352,-81.3901,91.45,58,0,11.5,clear sky
426,Pacific Grove,US,36.6177,-121.9166,71.2,81,0,8.01,clear sky
427,Pangai,TO,-19.8,-174.35,75.31,78,20,12.66,few clouds
428,Hanko,FI,59.8333,22.95,60.15,77,100,13.49,overcast clouds
429,Tahta,EG,26.7693,31.5021,93.92,13,30,8.88,scattered clouds
430,Palmer,US,42.1584,-72.3287,84.43,44,75,9.22,broken clouds
431,East Angus,CA,45.4834,-71.6658,79.43,49,40,9.22,scattered clouds
432,Sembakung,ID,3.8167,117.25,73.29,99,98,1.45,overcast clouds
433,Zavodoukovsk,RU,56.5042,66.5515,60.24,73,100,9.42,overcast clouds
434,Osa,RU,57.2829,55.4567,59.04,75,16,5.12,few clouds
435,Liberal,US,37.0431,-100.921,83.44,57,0,6.91,clear sky
436,Chara,RU,56.9064,118.2631,63.57,80,48,1.68,scattered clouds
437,Markova,UA,48.6758,24.4138,64.24,64,94,2.8,overcast clouds
438,Camabatela,AO,-8.1881,15.375,69.3,24,75,1.25,broken clouds
439,Kloulklubed,PW,7.0419,134.2556,73.9,71,100,7.85,overcast clouds
440,Te Anau,NZ,-45.4167,167.7167,42.49,97,100,2.46,overcast clouds
441,Poum,NC,-20.2333,164.0167,72.32,77,87,16.89,overcast clouds
442,Igarka,RU,67.4667,86.5833,59.99,67,95,0.07,overcast clouds
443,Gao,ML,16.6362,1.637,99.3,25,2,15.66,clear sky
444,Antofagasta,CL,-23.65,-70.4,60.08,72,64,10.54,broken clouds
445,Makakilo City,US,21.3469,-158.0858,80.92,60,0,11.5,clear sky
446,Guiratinga,BR,-16.3494,-53.7583,92.17,15,1,5.53,clear sky
447,Nuqui,CO,5.7125,-77.2708,80.28,81,77,9.15,light rain
448,Gorontalo,ID,0.5412,123.0595,74.44,95,88,2.19,overcast clouds
449,Sandakan,MY,5.8402,118.1179,77.11,88,97,2.84,overcast clouds
450,Sungaipenuh,ID,-2.0833,101.3833,64.65,96,66,2.55,broken clouds
451,Kenai,US,60.5544,-151.2583,60.03,81,0,0.0,clear sky
452,Entre Rios,BR,-11.9419,-38.0844,73.29,83,60,6.55,broken clouds
453,Kupino,RU,54.3663,77.2981,69.89,56,34,8.99,scattered clouds
454,Arlit,NE,18.7369,7.3853,105.19,9,26,13.09,scattered clouds
455,Port-Cartier,CA,50.0334,-66.8654,68.22,58,72,5.7,broken clouds
456,Diplo,PK,24.4667,69.584,82.45,80,100,17.36,overcast clouds
457,Abha,SA,18.2164,42.5053,64.22,82,75,5.75,light rain
458,Nata,PA,8.3333,-80.5167,84.07,74,78,3.2,broken clouds
459,Coquimbo,CL,-29.9533,-71.3436,58.73,82,20,11.5,few clouds
460,Nantucket,US,41.2835,-70.0995,82.54,58,0,10.36,clear sky
461,Hamilton,US,39.1834,-84.5333,81.61,87,100,11.5,overcast clouds
462,Jinka,ET,5.65,36.65,66.18,57,100,2.15,overcast clouds
463,Birao,CF,10.2849,22.7882,74.57,85,64,5.88,light rain
464,Dodge City,US,37.7528,-100.0171,87.24,57,0,4.0,clear sky
465,Dehloran,IR,32.6941,47.2679,99.09,6,61,7.94,broken clouds
466,Angoche,MZ,-16.2325,39.9086,71.6,64,13,9.91,few clouds
467,Besao,PH,17.095,120.8579,62.76,94,100,1.16,overcast clouds
468,Zyryanovsk,KZ,49.7386,84.2719,60.76,74,0,1.99,clear sky
469,Lasa,IT,46.6166,10.7002,66.69,82,47,2.46,scattered clouds
470,Maningrida,AU,-12.0667,134.2667,60.84,92,7,9.31,clear sky
471,Soledade,BR,-28.8183,-52.5103,69.55,72,100,5.79,overcast clouds
472,Atar,MR,20.5169,-13.0499,110.55,9,4,17.63,clear sky
473,Cordoba,AR,-31.4135,-64.1811,63.75,69,100,4.61,overcast clouds
474,Mount Gambier,AU,-37.8333,140.7667,40.91,100,75,0.0,fog
475,Kondinskoye,RU,59.6481,67.41,56.3,73,74,6.67,broken clouds
476,Poplar Bluff,US,36.757,-90.3929,97.34,56,0,8.05,clear sky
477,Klyuchi,RU,52.2667,79.1667,71.87,49,68,14.0,broken clouds
478,Jingdezhen,CN,29.2947,117.2079,81.1,74,42,3.11,scattered clouds
479,Henties Bay,NA,-22.116,14.2845,55.44,78,1,6.51,clear sky
480,Ahipara,NZ,-35.1667,173.1667,58.03,90,74,18.81,broken clouds
481,Ilulissat,GL,69.2167,-51.1,44.62,87,75,5.75,broken clouds
482,Oriximina,BR,-1.7656,-55.8661,91.11,43,99,6.22,overcast clouds
483,Ayr,GB,55.4627,-4.6339,66.31,63,20,5.75,few clouds
484,Sterling,US,39.0062,-77.4286,90.25,64,75,8.05,broken clouds
485,Sobolevo,RU,54.4299,31.8996,61.79,93,95,8.01,overcast clouds
486,Kumbakonam,IN,10.9667,79.3833,81.41,75,65,4.88,broken clouds
487,Veraval,IN,20.9,70.3667,81.37,86,89,11.72,overcast clouds
488,Kununurra,AU,-15.7667,128.7333,55.38,76,40,2.3,scattered clouds
489,Clarence Town,AU,-32.5833,151.7833,50.86,82,84,5.35,broken clouds
490,Bowen,AU,-20.0167,148.2333,56.82,67,0,9.91,clear sky
491,Hambantota,LK,6.1241,81.1185,79.41,81,97,2.64,overcast clouds
492,Talnakh,RU,69.4865,88.3972,61.21,54,85,1.16,overcast clouds
493,Codrington,AU,-38.2667,141.9667,46.53,75,65,7.31,broken clouds
494,Kudahuvadhoo,MV,2.6708,72.8944,82.71,75,100,14.76,overcast clouds
495,Malartic,CA,48.1335,-78.1328,77.02,61,99,8.97,overcast clouds
496,Kedougou,SN,12.5579,-12.1743,82.38,79,91,8.28,overcast clouds
497,Hovd,MN,48.0056,91.6419,60.89,41,100,1.03,overcast clouds
498,Itoman,JP,26.1247,127.6694,82.42,83,1,8.05,clear sky
499,Alugan,PH,12.2188,125.4808,78.26,90,100,5.59,overcast clouds
500,Bilibino,RU,68.0546,166.4372,40.01,76,96,3.13,overcast clouds
501,Tuchkovo,RU,55.6011,36.4681,75.0,88,57,2.39,broken clouds
502,Havelock,US,34.8791,-76.9013,96.75,71,0,16.11,clear sky
503,Vadso,NO,70.0744,29.7487,65.28,77,75,9.22,broken clouds
504,Matagami,CA,49.7502,-77.6328,73.51,53,100,6.91,overcast clouds
505,Plettenberg Bay,ZA,-34.0527,23.3716,56.95,78,9,4.88,clear sky
506,Simao,CN,22.7886,100.9748,64.0,93,34,0.74,scattered clouds
507,Saint-Paul,RE,-21.0096,55.2707,69.89,79,40,0.47,scattered clouds
508,Itupiranga,BR,-5.1347,-49.3267,95.32,29,11,2.86,few clouds
509,Svetlaya,RU,46.5389,138.3297,62.33,98,100,3.09,overcast clouds
510,Isabela,PH,6.7085,121.9711,77.05,84,95,2.46,overcast clouds
511,Opuwo,NA,-18.0607,13.84,68.09,24,47,1.95,scattered clouds
512,Sunndalsora,NO,62.6754,8.5515,52.2,92,99,6.22,overcast clouds
513,Xunchang,CN,28.4543,104.715,72.59,84,99,2.62,overcast clouds
514,Dickinson,US,29.4608,-95.0513,96.13,68,75,11.5,broken clouds
515,Sokoni,TZ,-6.4333,39.55,75.74,78,37,15.08,scattered clouds
516,La Paz,BO,-16.5,-68.15,66.18,13,5,8.05,clear sky
517,Beringovskiy,RU,63.05,179.3167,47.46,88,80,4.23,broken clouds
518,Beisfjord,NO,68.3751,17.5988,53.04,95,100,7.49,light rain
519,Yanam,IN,16.7333,82.2167,79.29,87,62,2.1,broken clouds
520,Chifeng,CN,42.2683,118.9636,68.43,83,100,2.28,overcast clouds
521,Marsa Matruh,EG,31.3525,27.2453,79.27,74,0,6.8,clear sky
522,Qaqortoq,GL,60.7167,-46.0333,45.27,78,59,6.89,broken clouds
523,Along,IN,28.1667,94.7667,73.69,98,57,1.5,broken clouds
524,Plyussa,RU,58.4308,29.3654,56.8,97,100,3.69,overcast clouds
525,Energetik,RU,51.7445,58.7934,64.54,81,91,8.19,light rain
526,Tagusao,PH,9.1924,117.8141,80.76,84,45,8.28,scattered clouds
527,Senneterre,CA,48.3835,-77.2328,70.72,59,100,5.59,overcast clouds
528,La Reforma,MX,25.0833,-108.05,89.33,59,87,6.11,overcast clouds
529,Auki,SB,-8.7676,160.7034,75.78,87,48,3.74,scattered clouds
530,Rosetta,EG,31.4044,30.4164,79.36,75,0,9.62,clear sky
531,Hrebinka,UA,50.1171,32.4361,71.89,58,100,5.17,overcast clouds
532,Melfi,IT,40.9965,15.6514,74.1,64,56,2.89,light rain
533,Batesville,US,35.7698,-91.641,100.08,49,0,4.61,clear sky
534,Kaeo,NZ,-35.1,173.7833,56.32,94,91,17.13,overcast clouds
535,Sumbe,AO,-11.2061,13.8437,69.55,85,37,5.21,scattered clouds
536,Tam Ky,VN,15.5667,108.4833,76.59,92,39,4.23,scattered clouds
537,Thayetmyo,MM,19.3167,95.1833,81.25,74,67,1.57,broken clouds
538,Zhanaozen,KZ,43.3,52.8,87.19,22,18,11.34,few clouds
539,Shintomi,JP,32.0785,131.4723,76.89,92,12,2.55,few clouds
540,Miri,MY,4.4148,114.0089,75.6,90,96,3.6,overcast clouds
541,Pasighat,IN,28.0667,95.3333,77.05,95,85,2.77,overcast clouds
542,San Carlos De Bariloche,AR,-41.1456,-71.3082,44.35,61,40,14.97,scattered clouds
543,Shiloh,US,38.5614,-89.8973,83.43,74,75,5.75,broken clouds
544,Haverfordwest,GB,51.8017,-4.9691,63.05,72,100,4.7,overcast clouds
545,La Libertad,EC,-2.2333,-80.9,74.86,73,40,9.22,scattered clouds
546,Yichun,CN,47.7,128.9,65.48,82,90,2.42,overcast clouds
547,Zhangjiakou,CN,40.81,114.8794,64.09,90,90,1.12,light rain
548,Ratnagiri,IN,16.9833,73.3,79.75,87,100,7.87,overcast clouds
549,Adre,TD,13.4667,22.2,70.27,88,95,13.82,heavy intensity rain
550,Nizhneudinsk,RU,54.9076,99.0276,56.3,69,63,3.53,broken clouds
551,Buin,CL,-33.7333,-70.75,55.11,67,82,5.68,broken clouds
552,Mae Ramat,TH,16.984,98.5166,79.81,97,12,0.58,few clouds
553,Husavik,IS,66.0449,-17.3389,61.45,68,100,16.84,overcast clouds
554,Van,TR,38.4924,43.3831,69.15,28,0,3.44,clear sky
555,Novikovo,RU,51.1537,37.8879,73.76,59,72,1.88,broken clouds
556,Prijepolje,RS,43.3719,19.6406,63.39,99,77,3.78,broken clouds
557,Arkhipo-Osipovka,RU,44.37,38.52,69.84,75,5,1.54,clear sky
558,Laguna,US,38.421,-121.4238,88.97,52,0,5.75,clear sky
559,Chistogorskiy,RU,53.9835,87.3843,60.28,89,2,2.24,clear sky
560,Okakarara,NA,-20.5833,17.4333,66.97,25,65,8.32,broken clouds
561,Namie,JP,37.4833,141.0,76.71,95,100,1.63,overcast clouds
562,Ambilobe,MG,-13.2,49.05,69.15,85,57,3.53,light rain
563,Weyburn,CA,49.6668,-103.8511,68.22,60,61,14.97,broken clouds
564,Nizhniy Tsasuchey,RU,50.5167,115.1333,56.59,85,86,5.46,overcast clouds
565,Yumen,CN,40.2833,97.2,81.32,12,19,8.14,few clouds
566,Alto Araguaia,BR,-17.3147,-53.2153,89.76,15,0,4.54,clear sky
567,Camocim,BR,-2.9022,-40.8411,84.2,63,43,13.98,scattered clouds
568,Usinsk,RU,65.9939,57.5281,65.75,49,97,7.45,overcast clouds
569,Kupang,ID,-10.1667,123.5833,74.75,75,17,13.49,few clouds
570,Gallup,US,35.5281,-108.7426,77.76,60,0,8.95,clear sky
571,Skelleftea,SE,64.7507,20.9528,62.01,74,100,9.22,overcast clouds
572,Sept-Iles,CA,50.2001,-66.3821,68.52,74,75,16.11,broken clouds
573,Humboldt,US,40.6665,-123.9178,60.13,39,6,5.46,clear sky
574,Uryupinsk,RU,50.8047,42.0138,71.62,63,94,3.89,overcast clouds
575,Poso,ID,-1.3959,120.7524,75.81,87,72,4.9,broken clouds
576,Walvis Bay,NA,-22.9575,14.5053,56.08,87,0,5.75,clear sky
577,Bikaner,IN,28.0167,73.3,85.48,73,100,10.98,overcast clouds
578,Trinidad,BO,-14.8333,-64.9,94.98,41,20,9.22,smoke
579,Careiro Da Varzea,BR,-3.2003,-59.8119,92.03,39,100,1.23,overcast clouds
580,Mutterstadt,DE,49.4414,8.3561,77.34,38,0,9.22,clear sky
581,Stavern,NO,59.0,10.0333,68.32,71,38,11.39,scattered clouds
582,Jarinu,BR,-23.1014,-46.7283,77.38,29,6,6.69,clear sky
583,Seoul,KR,37.5683,126.9778,80.17,69,0,10.36,clear sky
584,Rio Grande,BR,-32.035,-52.0986,75.31,79,75,5.73,broken clouds
585,Minab,IR,27.1467,57.0801,85.87,80,67,5.77,moderate rain
586,Jasper,US,37.2001,-94.3502,98.87,40,75,9.22,broken clouds
587,La Sarre,CA,48.8002,-79.1996,75.92,45,98,11.27,overcast clouds
588,Mangrol,IN,21.1167,70.1167,81.36,84,65,11.9,broken clouds
589,Khandbari,NP,27.3747,87.2039,70.92,93,75,1.34,broken clouds
590,Tiznit,MA,29.5833,-9.5,85.03,32,0,8.84,clear sky
591,Xiamen,CN,24.4798,118.0819,82.45,83,85,2.24,overcast clouds
592,Cockburn Town,TC,21.4612,-71.1419,84.16,65,40,17.27,scattered clouds
593,Bambous Virieux,MU,-20.3428,57.7575,71.22,94,75,10.36,light rain
594,Port Hedland,AU,-20.3167,118.5667,59.05,63,3,8.05,clear sky
595,Namibe,AO,-15.1961,12.1522,64.58,88,28,1.61,scattered clouds
596,Barranco,PA,9.5167,-82.7,87.91,66,88,4.52,overcast clouds
597,Hetauda,NP,27.4284,85.0322,81.75,89,78,3.56,broken clouds
598,Altamira,BR,-3.2033,-52.2064,86.41,56,60,1.74,broken clouds
599,Broken Hill,AU,-31.95,141.4333,43.23,67,2,4.85,clear sky
600,Moron,AR,-34.6534,-58.6198,70.95,95,94,1.95,overcast clouds
601,Falmouth,GB,50.1544,-5.0711,63.18,59,75,5.75,broken clouds
602,Zhezkazgan,KZ,47.8043,67.7144,79.65,35,23,8.46,few clouds
603,Ambon,ID,-3.6954,128.1814,80.74,83,75,4.61,broken clouds
604,El Seibo,DO,18.7641,-69.0375,90.93,51,22,13.31,few clouds
605,Poya,NC,-21.35,165.15,67.6,86,50,4.27,scattered clouds
606,Udachnyy,RU,66.4167,112.4,70.45,88,98,2.28,overcast clouds
607,Nangomba,TZ,-10.9,38.5,73.26,43,40,1.28,scattered clouds
608,Atambua,ID,-9.1061,124.8925,67.12,84,10,7.87,clear sky
609,Mamlyutka,KZ,54.9375,68.5394,62.42,87,99,17.07,light rain
610,Havre,FR,49.5833,0.3333,74.19,49,0,11.5,clear sky
611,Velbert,DE,51.3333,7.05,69.55,63,20,7.54,few clouds
612,Rajauri,IN,33.3833,74.3,75.69,82,100,2.44,overcast clouds
613,Pingliang,CN,35.5392,106.6861,66.58,67,0,4.41,clear sky
614,Blagoveshchenka,RU,52.8333,79.8667,68.99,58,63,10.22,broken clouds
615,Porgera,PG,-5.4667,143.2,40.64,98,79,2.3,broken clouds
616,Cumberland,US,35.0502,-78.8664,96.87,46,40,14.97,scattered clouds
617,Grindavik,IS,63.8424,-22.4338,53.55,93,100,18.41,mist
618,Boulder City,US,35.9786,-114.8325,94.42,38,14,10.42,few clouds
619,Roald,NO,62.5833,6.1333,57.76,82,75,5.75,broken clouds
620,Hammerfest,NO,70.6634,23.6821,50.45,100,75,10.36,moderate rain
621,Brigantine,US,39.4101,-74.3646,86.04,62,75,8.05,broken clouds
622,Khandyga,RU,62.6667,135.6,62.1,92,35,1.32,scattered clouds
623,Berdigestyakh,RU,62.0989,126.6992,62.96,71,15,3.29,few clouds
624,Vanavara,RU,60.34,102.2797,54.57,95,100,2.24,overcast clouds
625,Amapa,BR,1.0,-52.0,83.77,71,74,2.98,broken clouds
626,Bontang,ID,0.1333,117.5,77.88,87,100,3.18,light rain
627,Raisio,FI,60.4859,22.169,59.83,82,75,5.75,broken clouds
628,Izhma,RU,65.0083,53.9113,62.51,55,35,5.77,scattered clouds
629,Semey,KZ,50.4111,80.2275,72.05,43,18,11.14,few clouds
630,Fairview,US,40.8126,-73.999,89.2,43,0,12.66,clear sky
631,Batemans Bay,AU,-35.7167,150.1833,50.09,78,14,5.86,few clouds
632,Mananjary,MG,-21.2167,48.3333,66.15,84,0,3.44,clear sky
633,Nador,MA,35.174,-2.9287,87.87,48,0,10.36,clear sky
634,Nuuk,GL,64.1835,-51.7216,50.61,71,40,9.22,scattered clouds
635,Cortes,ES,41.9395,-1.4396,89.65,25,0,13.89,clear sky
636,Guano,EC,-1.5833,-78.6333,55.47,88,75,4.61,broken clouds
637,Manto,HN,14.9167,-86.3833,84.9,52,59,3.47,broken clouds
638,Innisfail,AU,-17.5333,146.0333,66.56,84,65,7.34,broken clouds
639,Port Hardy,CA,50.6996,-127.4199,68.18,77,0,4.61,clear sky
640,Padang,ID,-0.9492,100.3543,77.27,83,36,3.76,scattered clouds
641,Requena,ES,39.4883,-1.1004,77.79,58,5,14.58,clear sky
642,Vila Velha,BR,-20.3297,-40.2925,78.75,69,20,8.05,few clouds
643,Mayumba,GA,-3.432,10.6554,70.68,86,86,5.48,overcast clouds
644,Zugdidi,GE,42.5088,41.8709,65.01,94,16,2.21,few clouds
645,Nome,US,64.5011,-165.4064,49.15,81,100,0.0,overcast clouds
646,Mangan,IN,27.5167,88.5333,75.4,91,89,1.77,overcast clouds
647,Virden,US,39.5009,-89.7679,83.68,80,96,9.73,overcast clouds
648,Port Keats,AU,-14.25,129.55,69.12,38,48,13.06,scattered clouds
649,Bathsheba,BB,13.2167,-59.5167,88.41,86,40,18.41,scattered clouds
650,Carroll,US,39.5501,-77.0164,88.12,63,40,6.91,scattered clouds
651,Yangambi,CD,0.8102,24.4336,72.21,97,98,2.37,light rain
652,Richards Bay,ZA,-28.783,32.0377,68.2,82,10,12.68,clear sky
653,Sigayevo,RU,56.4216,53.7757,62.37,74,87,4.43,overcast clouds
654,Mackay,AU,-21.15,149.2,47.68,56,0,15.41,clear sky
655,Buala,SB,-8.145,159.5921,78.58,80,22,4.83,few clouds
656,Lisakovsk,KZ,52.5369,62.4936,62.2,83,76,15.41,broken clouds
657,Moba,CN,33.2288,105.0179,59.7,87,2,3.27,clear sky
658,Port Shepstone,ZA,-30.7414,30.455,67.08,75,89,12.28,overcast clouds
659,San Cristobal,VE,7.7669,-72.225,82.58,53,49,7.4,scattered clouds
660,Zaranj,AF,30.9667,61.8833,93.16,36,8,7.85,clear sky
661,Warwick,US,41.7001,-71.4162,89.73,48,75,23.02,broken clouds
662,Khani,GE,41.9563,42.9566,62.17,96,71,1.23,broken clouds
663,Dongying,CN,37.4564,118.4856,76.78,87,76,1.32,broken clouds
664,Boende,CD,-0.2167,20.8667,73.04,93,86,2.24,light rain
665,Xixiang,CN,35.1628,112.865,74.95,93,99,2.19,overcast clouds
666,Tottori,JP,35.5,134.2333,76.33,91,100,5.88,overcast clouds
667,Niquero,CU,20.0431,-77.5828,87.82,61,92,6.6,overcast clouds
668,Dalen,NL,52.6992,6.7556,64.83,63,80,10.0,broken clouds
669,Galesong,ID,-5.3166,119.3661,73.42,76,10,8.48,clear sky
670,Kitimat,CA,54.0524,-128.6534,79.92,55,14,2.8,few clouds
671,Praya,CV,14.9215,-23.5087,82.94,74,20,8.05,few clouds
672,Mabay,PH,6.0577,124.4666,78.13,84,86,3.22,overcast clouds
673,Marsabit,KE,2.3284,37.9899,68.13,53,51,17.2,broken clouds
674,Mitu,CO,1.1983,-70.1733,73.24,97,99,2.15,overcast clouds
675,Buraydah,SA,26.326,43.975,99.05,10,47,8.39,scattered clouds
676,Lamu,KE,-2.2717,40.902,74.8,77,46,14.85,scattered clouds
677,Inirida,CO,3.8653,-67.9239,79.99,80,99,2.66,overcast clouds
678,Altay,CN,47.8667,88.1167,64.67,43,40,6.06,scattered clouds
679,Takoradi,GH,4.8845,-1.7554,76.8,83,80,13.62,broken clouds
680,Mahanoro,MG,-19.9,48.8,65.68,88,1,3.09,clear sky
681,North Bend,US,43.4065,-124.2243,77.23,84,0,10.36,clear sky
682,Togur,RU,58.3631,82.8265,63.86,96,82,4.45,light rain
683,Naze,JP,28.3667,129.4833,77.92,85,68,12.68,light rain
684,Dingle,PH,10.9995,122.6711,76.1,88,89,2.59,overcast clouds
685,Hwange,ZW,-18.3693,26.5019,64.76,44,0,2.59,clear sky
686,Quatre Cocos,MU,-20.2078,57.7625,71.1,79,29,13.44,light rain
687,Hala,PK,25.8131,68.4227,85.98,76,99,18.81,overcast clouds
688,General Roca,AR,-39.0333,-67.5833,55.65,50,35,14.32,scattered clouds
689,Chernogorsk,RU,53.8236,91.2842,60.37,77,0,0.0,clear sky
690,Comodoro Rivadavia,AR,-45.8667,-67.5,44.46,65,20,21.85,few clouds
691,Soyo,AO,-6.1349,12.3689,70.75,87,72,7.83,broken clouds
692,Zemlyansk,RU,51.9041,38.7334,69.44,88,77,4.68,broken clouds
693,Ankpa,NG,7.3706,7.6253,72.07,93,100,3.65,overcast clouds
694,Ecoporanga,BR,-18.3733,-40.8306,81.18,35,33,7.18,scattered clouds
695,Suraabad,AZ,40.8192,49.4687,79.11,71,47,17.72,scattered clouds
696,Kropotkin,RU,45.4375,40.5756,71.53,49,46,5.26,scattered clouds
697,Silver City,US,32.7701,-108.2803,78.76,61,100,12.66,overcast clouds
698,Burnie,AU,-41.0667,145.9167,45.95,70,52,10.87,broken clouds
699,Bac Lieu,VN,9.285,105.7244,81.12,81,84,6.06,broken clouds
700,Oum Hadjer,TD,13.2954,19.6966,82.87,63,90,10.11,overcast clouds
701,Bambanglipuro,ID,-7.95,110.2833,73.76,92,50,3.27,scattered clouds
702,Bonham,US,33.5773,-96.1783,105.55,36,0,13.8,clear sky
703,Syracuse,IT,37.0881,15.2792,85.59,67,0,6.71,clear sky
704,Jiangyou,CN,31.7667,104.7167,74.7,86,8,3.15,clear sky
705,Erice,IT,38.037,12.5865,79.36,74,20,6.91,few clouds
706,Lieksa,FI,63.3167,30.0167,64.65,68,85,12.68,overcast clouds
707,Evensk,RU,61.95,159.2333,48.25,75,92,11.54,overcast clouds
708,Whitefish,US,48.4111,-114.3376,85.21,47,0,3.44,clear sky
709,Bangolo,CI,7.0069,-7.475,74.82,87,95,4.43,light rain
710,Hare Bay,CA,48.8499,-54.0148,78.19,58,76,7.31,broken clouds
711,Lugazi,UG,0.3772,32.9197,67.57,69,68,1.97,broken clouds
712,Caravelas,BR,-17.7125,-39.2481,75.88,65,28,5.73,scattered clouds
713,Menongue,AO,-14.6585,17.691,60.96,26,32,4.63,scattered clouds
